[
  {
    "name": "toronto",
    "lat": "43.657751",
    "lon": "-79.385823"
  },
  {
    "name": "vancouver",
    "lat": "49.253969",
    "lon": "-123.107100"
  },
  {
    "name": "montreal",
    "lat": "45.514287",
    "lon": "-73.611912"
  },
  {
    "name": "niagara-falls",
    "lat": "43.100043",
    "lon": "-79.077324"
  },
  {
    "name": "victoria",
    "lat": "48.426979",
    "lon": "-123.355475"
  },
  {
    "name": "halifax",
    "lat": "44.644048",
    "lon": "-63.587570"
  },
  {
    "name": "quebec-city",
    "lat": "46.809694",
    "lon": "-71.253640"
  },
  {
    "name": "calgary",
    "lat": "51.032111",
    "lon": "-114.081364"
  },
  {
    "name": "ottawa",
    "lat": "45.405441",
    "lon": "-75.686860"
  },
  {
    "name": "edmonton",
    "lat": "53.540001",
    "lon": "-113.499957"
  }
]
